unknown,Checksum,UnixTimeStamp,MissionID,PlatformTailNumber,PlatformHeadingAngle,PlatformPitchAngle,PlatformRollAngle,PlatformTrueAirspeed,PlatformIndicatedAirspeed,PlatformDesignation,ImageSourceSensor,ImageCoordinateSystem,SensorLatitude,SensorLongitude,SensorTrueAltitude,SensorHorizontalFieldofView,SensorVerticalFieldofView,SensorRelativeAzimuthAngle,SensorRelativeElevationAngle,SensorRelativeRollAngle,SlantRange,TargetWidth,FrameCenterLatitude,FrameCenterLongitude,FrameCenterElevation,OffsetCornerLatitudePoint1,OffsetCornerLongitudePoint1,OffsetCornerLatitudePoint2,OffsetCornerLongitudePoint2,OffsetCornerLatitudePoint3,OffsetCornerLongitudePoint3,OffsetCornerLatitudePoint4,OffsetCornerLongitudePoint4,IcingDetected,WindDirection,WindSpeed,StaticPressure,DensityAltitude,OutsideAirTemperature,TargetLocationLatitude,TargetLocationLongitude,TargetLocationElevation,TargetTrackGateWidth,TargetTrackGateHeight,TargetErrorEstimate_CE90,TargetErrorEstimate_LE90,GenericFlagData,SecurityLocalSet,unknown,PlatformAngleofAttack,PlatformVerticalSpeed,PlatformSideslipAngle,unknown,unknown,RelativeHumidity,PlatformGroundSpeed,GroundRange,PlatformFuelRemaining,PlatformCallSign,unknown,unknown,LaserPRFCode,SensorFieldofViewName,PlatformMagneticHeading,UASDatalinkLSVersionNumber,unknown,AlternatePlatformLatitude,AlternatePlatformLongitude,unknown,AlternatePlatformName,AlternatePlatformHeading,EventStartTime,RVTLocalSet,VMTILocalSet,SensorEllipsoidHeight,AlternatePlatformEllipsoidHeight,OperationalMode,FrameCenterHeightAboveEllipsoid,SensorNorthVelocity,SensorEastVelocity,ImageHorizonPixelPack,CornerLatitudePoint1,CornerLongitudePoint1,CornerLatitudePoint2,CornerLongitudePoint2,CornerLatitudePoint3,CornerLongitudePoint3,CornerLatitudePoint4,CornerLongitudePoint4,PlatformPitchAngleFull,PlatformRollAngleFull,PlatformAngleofAttackFull,PlatformSideslipAngleFull,MIISCoreIdentifier,SARMotionImageryMetadata,TargetWidthExtended,unknown,Geo_RegistrationLocalSet,unknown,unknown,unknown,unknown,unknown,SensorEllipsoidHeightExtended,unknown,unknown,unknown,unknown,unknown,unknown,unknown,unknown,AltitudeAGL,unknown,unknown,ControlCommandVerificationList,SensorAzimuthRate,SensorElevationRate,SensorRollRate,On_boardMIStoragePercentFull
null,63749,1348087826484970,ESRI_Metadata_Collect,N97826,157.60128175783933,3.390606402783291,-6.491286965544603,null,null,C208B,,,41.09574003196121,-104.87021569389394,2933.0312046997788,3.065232318608377,1.7221332112611583,254.25000015978006,-20.38281248900239,0,2291.890560251635,0,41.10680242586267,-104.85100629965356,1867.2037842374307,0.0008674886318552066,0.0002677999206518733,-0.000034333323160495866,0.0011787774285103858,-0.000817133091219821,-0.00024948881496628106,0.000034333323160495866,-0.001110110782189394,null,null,null,null,null,null,null,null,null,null,null,null,null,0,COMPLEX,null,null,null,null,null,null,null,0,null,null,Firebird,null,null,null,null,null,1,null,null,null,null,null,null,0,null,null,null,null,null,null,null,null,null,null,null,null,null,null,null,null,null,null,null,null,null,null,null,null,null,null,null,null,null,null,null,null,null,null,null,null,null,null,null,null,null,null,null,null,null,null,null,null
null,30880,1348087826684896,ESRI_Metadata_Collect,N97826,157.45296406500344,3.7110507522812597,-7.318338572344125,null,null,C208B,,,41.09563169586269,-104.87016204971363,2932.7275501640347,3.065232318608377,1.7221332112611583,254.14062512436428,-18.63281250867658,0,2291.7101165027616,0,41.106749745601206,-104.8510079760342,1867.5074387731747,0.0008697775200659091,0.0002632221442304683,-0.000029755546739090866,0.0011787774285103858,-0.0008194219794305235,-0.00024719992675557856,0.000029755546739090866,-0.001110110782189394,null,null,null,null,null,null,null,null,null,null,null,null,null,0,COMPLEX,null,null,null,null,null,null,null,0,null,null,Firebird,null,null,null,null,null,1,null,null,null,null,null,null,0,null,null,null,null,null,null,null,null,null,null,null,null,null,null,null,null,null,null,null,null,null,null,null,null,null,null,null,null,null,null,null,null,null,null,null,null,null,null,null,null,null,null,null,null,null,null,null,null
null,37249,1348087826904804,ESRI_Metadata_Collect,N97826,157.34859235523004,4.406262398144474,-10.483108005005036,null,null,C208B,,,41.09552356931172,-104.87010790261911,2932.42389562829,3.0679789425497823,1.7248798352025636,253.9296876578428,-16.062499972089427,0,2291.640267309649,0,41.10669765207297,-104.85100847894839,1867.5074387731747,0.0008720664082766116,0.0002586443678090633,-0.000027466658528402244,0.0011810663167210883,-0.0008194219794305235,-0.00024262215033417356,0.000027466658528402244,-0.0011123996704000966,null,null,null,null,null,null,null,null,null,null,null,null,null,0,COMPLEX,null,null,null,null,null,null,null,0,null,null,Firebird,null,null,null,null,null,1,null,null,null,null,null,null,0,null,null,null,null,null,null,null,null,null,null,null,null,null,null,null,null,null,null,null,null,null,null,null,null,null,null,null,null,null,null,null,null,null,null,null,null,null,null,null,null,null,null,null,null,null,null,null,null
null,45338,1348087827112857,ESRI_Metadata_Collect,N97826,157.36507209887847,4.702902310251169,-11.670278023621329,null,null,C208B,,,41.09541577803691,-104.8700516600488,2932.120241092546,3.065232318608377,1.7221332112611583,253.69531262984856,-14.585937538457074,0,2290.9452678381804,0,41.10664342115942,-104.85101510065189,1867.8110933089192,0.0008697775200659091,0.0002540665913876722,-0.000022888882106997244,0.0011787774285103858,-0.0008194219794305235,-0.00023804437391278244,0.000025177770317699744,-0.001110110782189394,null,null,null,null,null,null,null,null,null,null,null,null,null,0,COMPLEX,null,null,null,null,null,null,null,0,null,null,Firebird,null,null,null,null,null,1,null,null,null,null,null,null,0,null,null,null,null,null,null,null,null,null,null,null,null,null,null,null,null,null,null,null,null,null,null,null,null,null,null,null,null,null,null,null,null,null,null,null,null,null,null,null,null,null,null,null,null,null,null,null,null
null,51111,1348087827314900,ESRI_Metadata_Collect,N97826,157.0684367132067,4.898220770897549,-13.420514542069768,null,null,C208B,,,41.095308405857196,-104.86999583657365,2932.120241092546,3.065232318608377,1.7221332112611583,253.89062513920726,-13.273437532257958,0,2291.015117031293,0,41.10659204009295,-104.85101392718545,1867.8110933089192,0.0008720664082766116,0.0002517777031769697,-0.000020599993896294744,0.0011787774285103858,-0.000821710867641226,-0.00023346659749137744,0.000020599993896294744,-0.001110110782189394,null,null,null,null,null,null,null,null,null,null,null,null,null,0,COMPLEX,null,null,null,null,null,null,null,0,null,null,Firebird,null,null,null,null,null,1,null,null,null,null,null,null,0,null,null,null,null,null,null,null,null,null,null,null,null,null,null,null,null,null,null,null,null,null,null,null,null,null,null,null,null,null,null,null,null,null,null,null,null,null,null,null,null,null,null,null,null,null,null,null,null
null,35074,1348087827535049,ESRI_Metadata_Collect,N97826,156.49713893339438,4.124881740775777,-14.366588335825682,null,null,C208B,,,41.095183808866494,-104.86992920044341,2932.120241092546,3.065232318608377,1.7221332112611583,254.49218762444613,-12.742187479856511,0,2291.2176796913186,0,41.106532067575756,-104.85101107733837,1868.1147478446633,0.0008720664082766116,0.00024491103854487606,-0.00001602221747490362,0.0011787774285103858,-0.000821710867641226,-0.00022888882106998631,0.00001602221747490362,-0.0011123996704000966,null,null,null,null,null,null,null,null,null,null,null,null,null,0,COMPLEX,null,null,null,null,null,null,null,0,null,null,Firebird,null,null,null,null,null,1,null,null,null,null,null,null,0,null,null,null,null,null,null,null,null,null,null,null,null,null,null,null,null,null,null,null,null,null,null,null,null,null,null,null,null,null,null,null,null,null,null,null,null,null,null,null,null,null,null,null,null,null,null,null,null
null,41426,1348087827737913,ESRI_Metadata_Collect,N97826,156.16754406042574,3.5236671040986387,-14.490188299203467,null,null,C208B,,,41.095077484424735,-104.86987103003537,2932.42389562829,3.0679789425497823,1.7248798352025636,255.18750010411895,-12.929687468767952,0,2291.27239489259,0,41.106480309323615,-104.85100973623386,1868.1147478446633,0.0008743552964873141,0.00024262215033417356,-0.000011444441053498622,0.0011810663167210883,-0.0008239997558519285,-0.00022659993285928381,0.000013733329264201122,-0.0011123996704000966,null,null,null,null,null,null,null,null,null,null,null,null,null,0,COMPLEX,null,null,null,null,null,null,null,0,null,null,Firebird,null,null,null,null,null,1,null,null,null,null,null,null,0,null,null,null,null,null,null,null,null,null,null,null,null,null,null,null,null,null,null,null,null,null,null,null,null,null,null,null,null,null,null,null,null,null,null,null,null,null,null,null,null,null,null,null,null,null,null,null,null
null,6041,1348087827958271,ESRI_Metadata_Collect,N97826,155.10734721904328,2.8516495254371748,-13.921018097476114,null,null,C208B,,,41.09495372562435,-104.86980204697224,2932.42389562829,3.0679789425497823,1.7248798352025636,256.0156250968612,-13.63281246909537,0,2290.8824035643793,0,41.106418199421114,-104.85101166407159,1868.4184023804073,0.0008743552964873141,0.00023575548570206606,-0.000009155552842796122,0.0011810663167210883,-0.0008239997558519285,-0.00021973326822717631,0.000009155552842796122,-0.0011123996704000966,null,null,null,null,null,null,null,null,null,null,null,null,null,0,COMPLEX,null,null,null,null,null,null,null,0,null,null,Firebird,null,null,null,null,null,1,null,null,null,null,null,null,0,null,null,null,null,null,null,null,null,null,null,null,null,null,null,null,null,null,null,null,null,null,null,null,null,null,null,null,null,null,null,null,null,null,null,null,null,null,null,null,null,null,null,null,null,null,null,null,null
null,56766,1348087828158826,ESRI_Metadata_Collect,N97826,154.50308995193407,2.7893917661061423,-13.655507065034946,null,null,C208B,,,41.09484740118256,-104.86974303837388,2932.42389562829,3.065232318608377,1.7221332112611583,256.66406262122655,-13.820312541825842,0,2290.6716918318234,0,41.10636505815498,-104.85101216698578,1868.7220569161518,0.0008743552964873141,0.00023117770928067494,-0.000004577776421405,0.0011787774285103858,-0.0008239997558519285,-0.0002174443800164877,0.000006866664632093622,-0.0011123996704000966,null,null,null,null,null,null,null,null,null,null,null,null,null,0,COMPLEX,null,null,null,null,null,null,null,0,null,null,Firebird,null,null,null,null,null,1,null,null,null,null,null,null,0,null,null,null,null,null,null,null,null,null,null,null,null,null,null,null,null,null,null,null,null,null,null,null,null,null,null,null,null,null,null,null,null,null,null,null,null,null,null,null,null,null,null,null,null,null,null,null,null
null,34752,1348087828358804,ESRI_Metadata_Collect,N97826,153.36598764019226,2.8125858333078995,-13.756218146305734,null,null,C208B,,,41.09474204065964,-104.86968176666166,2932.7275501640347,3.0679789425497823,1.7248798352025636,257.16406259154064,-13.625000032421667,0,2290.4365328816784,0,41.106313090355286,-104.85101199934772,1868.7220569161518,0.0008766441846980166,0.00022659993285926994,-0.0000022888882107025,0.0011810663167210883,-0.0008239997558519285,-0.0002128666035950827,0.000004577776421405,-0.0011123996704000966,null,null,null,null,null,null,null,null,null,null,null,null,null,0,COMPLEX,null,null,null,null,null,null,null,0,null,null,Firebird,null,null,null,null,null,1,null,null,null,null,null,null,0,null,null,null,null,null,null,null,null,null,null,null,null,null,null,null,null,null,null,null,null,null,null,null,null,null,null,null,null,null,null,null,null,null,null,null,null,null,null,null,null,null,null,null,null,null,null,null,null
null,31720,1348087828562084,ESRI_Metadata_Collect,N97826,153.04188601510643,2.882778405102691,-13.87371440778832,null,null,C208B,,,41.09463701541284,-104.86961923766397,2932.7275501640347,3.065232318608377,1.7221332112611583,257.27343762695637,-13.531250037965947,0,2290.452831026738,0,41.10626288275526,-104.85100906568161,1869.0257114518959,0.0008766441846980166,0.00022202215643787881,0,0.0011787774285103858,-0.0008239997558519285,-0.0002082888271736777,0,-0.001110110782189394,null,null,null,null,null,null,null,null,null,null,null,null,null,0,COMPLEX,null,null,null,null,null,null,null,0,null,null,Firebird,null,null,null,null,null,1,null,null,null,null,null,null,0,null,null,null,null,null,null,null,null,null,null,null,null,null,null,null,null,null,null,null,null,null,null,null,null,null,null,null,null,null,null,null,null,null,null,null,null,null,null,null,null,null,null,null,null,null,null,null,null
null,47923,1348087828761858,ESRI_Metadata_Collect,N97826,152.70679789425498,3.1019013031403553,-13.655507065034946,null,null,C208B,,,41.09453245117075,-104.86955561901888,2932.7275501640347,3.0679789425497823,1.7248798352025636,257.17187511203156,-13.734374984043825,0,2289.710101273309,0,41.106209112846386,-104.85101191552869,1869.0257114518959,0.0008766441846980166,0.00021744438001647381,0.0000022888882107025,0.0011810663167210883,-0.000826288644062631,-0.00020371105075228657,0,-0.0011123996704000966,null,null,null,null,null,null,null,null,null,null,null,null,null,0,COMPLEX,null,null,null,null,null,null,null,0,null,null,Firebird,null,null,null,null,null,1,null,null,null,null,null,null,0,null,null,null,null,null,null,null,null,null,null,null,null,null,null,null,null,null,null,null,null,null,null,null,null,null,null,null,null,null,null,null,null,null,null,null,null,null,null,null,null,null,null,null,null,null,null,null,null
null,6242,1348087828961901,ESRI_Metadata_Collect,N97826,152.48706797894255,3.2190923795281847,-13.452558977019564,null,null,C208B,,,41.09442826411427,-104.8694912460025,2932.7275501640347,3.0679789425497823,1.7248798352025636,257.2265625878299,-13.914062536281563,0,2289.5773878063956,0,41.10615869569878,-104.85100940095774,1869.3293659876404,0.0008766441846980166,0.00021286660359506882,0.000006866664632093622,0.0011787774285103858,-0.000826288644062631,-0.00019913327433088157,-0.000004577776421405,-0.0011123996704000966,null,null,null,null,null,null,null,null,null,null,null,null,null,0,COMPLEX,null,null,null,null,null,null,null,0,null,null,Firebird,null,null,null,null,null,1,null,null,null,null,null,null,0,null,null,null,null,null,null,null,null,null,null,null,null,null,null,null,null,null,null,null,null,null,null,null,null,null,null,null,null,null,null,null,null,null,null,null,null,null,null,null,null,null,null,null,null,null,null,null,null
null,1679,1348087829164014,ESRI_Metadata_Collect,N97826,151.92675669489586,3.3515427106540088,-13.303018280587175,null,null,C208B,,,41.09432420278634,-104.86942678916708,2932.7275501640347,3.0679789425497823,1.7248798352025636,257.3828126623721,-13.976562532585376,0,2289.030235793681,0,41.106106141165895,-104.85101049060515,1869.3293659876404,0.000878933072908733,0.0002082888271736777,0.000009155552842796122,0.0011787774285103858,-0.000826288644062631,-0.00019455549790949045,-0.000006866664632093622,-0.0011123996704000966,null,null,null,null,null,null,null,null,null,null,null,null,null,0,COMPLEX,null,null,null,null,null,null,null,0,null,null,Firebird,null,null,null,null,null,1,null,null,null,null,null,null,0,null,null,null,null,null,null,null,null,null,null,null,null,null,null,null,null,null,null,null,null,null,null,null,null,null,null,null,null,null,null,null,null,null,null,null,null,null,null,null,null,null,null,null,null,null,null,null,null
null,6311,1348087829384098,ESRI_Metadata_Collect,N97826,151.66857404440375,3.3436078981902497,-13.310647907956174,null,null,C208B,,,41.09422072819166,-104.86936057213198,2932.7275501640347,3.065232318608377,1.7221332112611583,257.53906265309524,-13.984374969259079,0,2288.210671927829,0,41.10605249698554,-104.85101258608094,1869.3293659876404,0.0008766441846980166,0.0002037110507522727,0.000013733329264201122,0.0011787774285103858,-0.000826288644062631,-0.00018997772148808545,-0.000011444441053498622,-0.001110110782189394,null,null,null,null,null,null,null,null,null,null,null,null,null,0,COMPLEX,null,null,null,null,null,null,null,0,null,null,Firebird,null,null,null,null,null,1,null,null,null,null,null,null,0,null,null,null,null,null,null,null,null,null,null,null,null,null,null,null,null,null,null,null,null,null,null,null,null,null,null,null,null,null,null,null,null,null,null,null,null,null,null,null,null,null,null,null,null,null,null,null,null
null,22820,1348087829603998,ESRI_Metadata_Collect,N97826,151.20164797436485,3.1092257454145944,-13.350321970274969,null,null,C208B,,,41.09410057360964,-104.86928236897536,2932.7275501640347,3.065232318608377,1.7221332112611583,257.812500115906,-13.94531253443347,0,2287.585521649473,0,41.105991937735126,-104.85101216698578,1869.6330205233844,0.0008766441846980166,0.00019913327433088157,0.000018311105685592244,0.0011764885402996972,-0.000826288644062631,-0.00018539994506668045,-0.000013733329264201122,-0.001110110782189394,null,null,null,null,null,null,null,null,null,null,null,null,null,0,COMPLEX,null,null,null,null,null,null,null,0,null,null,Firebird,null,null,null,null,null,1,null,null,null,null,null,null,0,null,null,null,null,null,null,null,null,null,null,null,null,null,null,null,null,null,null,null,null,null,null,null,null,null,null,null,null,null,null,null,null,null,null,null,null,null,null,null,null,null,null,null,null,null,null,null,null
null,12355,1348087829803983,ESRI_Metadata_Collect,N97826,150.62485694666972,2.8437147129734157,-13.70891445661794,null,null,C208B,,,41.09399806293379,-104.86921430792158,2932.7275501640347,3.0679789425497823,1.7248798352025636,258.1015626196986,-13.718750026877387,0,2286.9685204436464,0,41.10593971847834,-104.85101199934772,1869.6330205233844,0.000878933072908733,0.00019455549790947657,0.000020599993896294744,0.0011787774285103858,-0.0008285775322733197,-0.00018082216864528933,-0.000018311105685592244,-0.001110110782189394,null,null,null,null,null,null,null,null,null,null,null,null,null,0,COMPLEX,null,null,null,null,null,null,null,0,null,null,Firebird,null,null,null,null,null,1,null,null,null,null,null,null,0,null,null,null,null,null,null,null,null,null,null,null,null,null,null,null,null,null,null,null,null,null,null,null,null,null,null,null,null,null,null,null,null,null,null,null,null,null,null,null,null,null,null,null,null,null,null,null,null
null,17164,1348087830024210,ESRI_Metadata_Collect,N97826,150.3007553215839,2.757652516251106,-13.866084780419321,null,null,C208B,,,41.09387895608967,-104.86913375783206,2932.7275501640347,3.0679789425497823,1.7248798352025636,258.3671876458375,-13.578124993284291,0,2286.2339397627475,0,41.105879284956416,-104.85101107733837,1869.936675059129,0.000878933072908733,0.00018768883327738295,0.000025177770317699744,0.0011764885402996972,-0.0008285775322733197,-0.00017624439222388433,-0.000020599993896294744,-0.001110110782189394,null,null,null,null,null,null,null,null,null,null,null,null,null,0,COMPLEX,null,null,null,null,null,null,null,0,null,null,Firebird,null,null,null,null,null,1,null,null,null,null,null,null,0,null,null,null,null,null,null,null,null,null,null,null,null,null,null,null,null,null,null,null,null,null,null,null,null,null,null,null,null,null,null,null,null,null,null,null,null,null,null,null,null,null,null,null,null,null,null,null,null
null,23412,1348087830224004,ESRI_Metadata_Collect,N97826,149.90524147402152,2.859584337900934,-13.62346263008515,null,null,C208B,,,41.0937769064185,-104.86906385275958,2932.7275501640347,3.065232318608377,1.7221332112611583,258.320312606711,-13.843750019485014,0,2285.3352134780343,0,41.105825976052245,-104.85101166407159,1869.936675059129,0.000878933072908733,0.00018311105685597795,0.000027466658528402244,0.0011741996520889947,-0.000826288644062631,-0.0001716666158024932,-0.000025177770317699744,-0.0011078218939787055,null,null,null,null,null,null,null,null,null,null,null,null,null,0,COMPLEX,null,null,null,null,null,null,null,0,null,null,Firebird,null,null,null,null,null,1,null,null,null,null,null,null,0,null,null,null,null,null,null,null,null,null,null,null,null,null,null,null,null,null,null,null,null,null,null,null,null,null,null,null,null,null,null,null,null,null,null,null,null,null,null,null,null,null,null,null,null,null,null,null,null
null,40024,1348087830423856,ESRI_Metadata_Collect,N97826,149.77340352483407,2.992034669026765,-13.452558977019564,null,null,C208B,,,41.093675569209125,-104.86899243894452,2932.7275501640347,3.0679789425497823,1.7248798352025636,258.1953126141325,-13.976562532585376,0,2284.514485458963,0,41.10577400825255,-104.85101132879547,1870.240329594873,0.000878933072908733,0.00017853328043457295,0.000032044434949793366,0.0011764885402996972,-0.0008285775322733197,-0.0001670888393810882,-0.000027466658528402244,-0.0011078218939787055,null,null,null,null,null,null,null,null,null,null,null,null,null,0,COMPLEX,null,null,null,null,null,null,null,0,null,null,Firebird,null,null,null,null,null,1,null,null,null,null,null,null,0,null,null,null,null,null,null,null,null,null,null,null,null,null,null,null,null,null,null,null,null,null,null,null,null,null,null,null,null,null,null,null,null,null,null,null,null,null,null,null,null,null,null,null,null,null,null,null,null
null,48474,1348087830625033,ESRI_Metadata_Collect,N97826,149.44930189974824,3.4534745323038436,-13.26487014374218,null,null,C208B,,,41.093574734913915,-104.86892027075818,2932.7275501640347,3.065232318608377,1.7221332112611583,258.0156251457556,-14.03906252888919,0,2283.608774254939,0,41.105721788995766,-104.8510111611574,1870.240329594873,0.000878933072908733,0.00017395550401318183,0.000034333323160495866,0.0011741996520889947,-0.0008285775322733197,-0.0001625110629596832,-0.000029755546739090866,-0.001105533005768003,null,null,null,null,null,null,null,null,null,null,null,null,null,0,COMPLEX,null,null,null,null,null,null,null,0,null,null,Firebird,null,null,null,null,null,1,null,null,null,null,null,null,0,null,null,null,null,null,null,null,null,null,null,null,null,null,null,null,null,null,null,null,null,null,null,null,null,null,null,null,null,null,null,null,null,null,null,null,null,null,null,null,null,null,null,null,null,null,null,null,null
null,10602,1348087830827068,ESRI_Metadata_Collect,N97826,149.2790112153811,3.726920377208778,-13.272499771111178,null,null,C208B,,,41.09347423589483,-104.86884692910539,2932.7275501640347,3.065232318608377,1.7221332112611583,257.8359375935597,-13.937500013940735,0,2283.1163374434964,0,41.10567267104318,-104.8510063834726,1870.5439841306174,0.000878933072908733,0.00016937772759177683,0.000038911099581900865,0.0011741996520889947,-0.0008857997375408128,-0.00024719992675557856,-0.000034333323160495866,-0.001105533005768003,null,null,null,null,null,null,null,null,null,null,null,null,null,0,COMPLEX,null,null,null,null,null,null,null,0,null,null,Firebird,null,null,null,null,null,1,null,null,null,null,null,null,0,null,null,null,null,null,null,null,null,null,null,null,null,null,null,null,null,null,null,null,null,null,null,null,null,null,null,null,null,null,null,null,null,null,null,null,null,null,null,null,null,null,null,null,null,null,null,null,null
null,62993,1348087831046836,ESRI_Metadata_Collect,N97826,149.02082856488897,4.195074312570576,-13.202307199316387,null,null,C208B,,,41.093374323609,-104.8687724978052,2932.7275501640347,3.065232318608377,1.7221332112611583,257.63281264752914,-13.984374969259079,0,2283.2886321198403,0,41.10562870796102,-104.85099473262719,1870.5439841306174,0.000878933072908733,0.0001647999511703857,0.00004119998779258949,0.0011741996520889947,-0.0008857997375408128,-0.00024262215033417356,-0.000036622211371198365,-0.001105533005768003,null,null,null,null,null,null,null,null,null,null,null,null,null,0,COMPLEX,null,null,null,null,null,null,null,0,null,null,Firebird,null,null,null,null,null,1,null,null,null,null,null,null,0,null,null,null,null,null,null,null,null,null,null,null,null,null,null,null,null,null,null,null,null,null,null,null,null,null,null,null,null,null,null,null,null,null,null,null,null,null,null,null,null,null,null,null,null,null,null,null,null
null,44220,1348087831267184,ESRI_Metadata_Collect,N97826,148.81208514534217,4.601580858790854,-12.787255470442823,null,null,C208B,,,41.09325810852147,-104.86868490691701,2932.7275501640347,3.065232318608377,1.7221332112611583,257.35156266422746,-14.242187474967068,0,2284.0779280020106,0,41.10558185312226,-104.85097587334504,1870.8476386663615,0.0008812219611194216,0.0001602221747489807,0.00004577776421399449,0.0011741996520889947,-0.0008880886257515153,-0.00023575548570207994,-0.00004119998779258949,-0.001105533005768003,null,null,null,null,null,null,null,null,null,null,null,null,null,0,COMPLEX,null,null,null,null,null,null,null,0,null,null,Firebird,null,null,null,null,null,1,null,null,null,null,null,null,0,null,null,null,null,null,null,null,null,null,null,null,null,null,null,null,null,null,null,null,null,null,null,null,null,null,null,null,null,null,null,null,null,null,null,null,null,null,null,null,null,null,null,null,null,null,null,null,null
null,64413,1348087831467165,ESRI_Metadata_Collect,N97826,148.68574044403752,4.781029694509723,-12.662129581591238,null,null,C208B,,,41.09315916015447,-104.86860863159811,2932.7275501640347,3.065232318608377,1.7221332112611583,257.2109376306671,-14.343749989915523,0,2284.296788807096,0,41.105538225316224,-104.85096254611898,1870.8476386663615,0.0008812219611194216,0.0001556443983275757,0.00005035554063539949,0.0011741996520889947,-0.0008880886257515153,-0.00023117770928067494,-0.00004577776421399449,-0.001105533005768003,null,null,null,null,null,null,null,null,null,null,null,null,null,0,COMPLEX,null,null,null,null,null,null,null,0,null,null,Firebird,null,null,null,null,null,1,null,null,null,null,null,null,0,null,null,null,null,null,null,null,null,null,null,null,null,null,null,null,null,null,null,null,null,null,null,null,null,null,null,null,null,null,null,null,null,null,null,null,null,null,null,null,null,null,null,null,null,null,null,null,null
null,47454,1348087831687133,ESRI_Metadata_Collect,N97826,148.33966582742045,4.961088900418105,-12.50648518326365,null,null,C208B,,,41.09304436999048,-104.86851852613897,2933.0312046997788,3.065232318608377,1.7221332112611583,257.1796876325225,-14.476562503015884,0,2283.67163852874,0,41.10548173128882,-104.85095550532031,1871.151293202106,0.0008812219611194216,0.00014877773369548208,0.00005493331705679061,0.0011719107638782922,-0.0008880886257515153,-0.00022659993285928381,-0.00004806665242469699,-0.001105533005768003,null,null,null,null,null,null,null,null,null,null,null,null,null,0,COMPLEX,null,null,null,null,null,null,null,0,null,null,Firebird,null,null,null,null,null,1,null,null,null,null,null,null,0,null,null,null,null,null,null,null,null,null,null,null,null,null,null,null,null,null,null,null,null,null,null,null,null,null,null,null,null,null,null,null,null,null,null,null,null,null,null,null,null,null,null,null,null,null,null,null,null
null,6701,1348087831893100,ESRI_Metadata_Collect,N97826,148.14740215152207,5.008087405011139,-12.388988921781056,null,null,C208B,,,41.092946511270924,-104.86844032298235,2933.0312046997788,3.065232318608377,1.7221332112611583,257.2109376306671,-14.640625014268153,0,2282.749629179656,0,41.10543114650315,-104.85095290693033,1871.45494773785,0.0008812219611194216,0.00014419995727407708,0.00005722220526749311,0.0011719107638782922,-0.0008880886257515153,-0.00022202215643787881,-0.00005264442884608811,-0.0011032441175573005,null,null,null,null,null,null,null,null,null,null,null,null,null,0,COMPLEX,null,null,null,null,null,null,null,0,null,null,Firebird,null,null,null,null,null,1,null,null,null,null,null,null,0,null,null,null,null,null,null,null,null,null,null,null,null,null,null,null,null,null,null,null,null,null,null,null,null,null,null,null,null,null,null,null,null,null,null,null,null,null,null,null,null,null,null,null,null,null,null,null,null
null,63274,1348087832094182,ESRI_Metadata_Collect,N97826,147.74090180819408,5.039216284676655,-12.248603778191473,null,null,C208B,,,41.092848987827466,-104.86836136545445,2933.3348592355233,3.065232318608377,1.7221332112611583,257.2812501474473,-14.718749967738404,0,2281.74962156493,0,41.1053802683509,-104.8509509790926,1871.45494773785,0.0008812219611194216,0.00013962218085268596,0.00006179998168889811,0.0011696218756675897,-0.0008880886257515153,-0.0002151554918057852,-0.00005493331705679061,-0.0011032441175573005,null,null,null,null,null,null,null,null,null,null,null,null,null,0,COMPLEX,null,null,null,null,null,null,null,0,null,null,Firebird,null,null,null,null,null,1,null,null,null,null,null,null,0,null,null,null,null,null,null,null,null,null,null,null,null,null,null,null,null,null,null,null,null,null,null,null,null,null,null,null,null,null,null,null,null,null,null,null,null,null,null,null,null,null,null,null,null,null,null,null,null
null,40943,1348087832313954,ESRI_Metadata_Collect,N97826,147.4991989013504,5.0703451643421715,-12.248603778191473,null,null,C208B,,,41.09275171584113,-104.86828198883137,2933.3348592355233,3.065232318608377,1.7221332112611583,257.4062501400258,-14.726562488231139,0,2280.5621852820186,0,41.105328426279755,-104.85095014090228,1871.7586022735945,0.0008812219611194216,0.00013504440443128096,0.00006408886989958673,0.0011696218756675897,-0.0008880886257515153,-0.0002105777153843802,-0.00005951109347819561,-0.001100955229346598,null,null,null,null,null,null,null,null,null,null,null,null,null,0,COMPLEX,null,null,null,null,null,null,null,0,null,null,Firebird,null,null,null,null,null,1,null,null,null,null,null,null,0,null,null,null,null,null,null,null,null,null,null,null,null,null,null,null,null,null,null,null,null,null,null,null,null,null,null,null,null,null,null,null,null,null,null,null,null,null,null,null,null,null,null,null,null,null,null,null,null
null,5909,1348087832513992,ESRI_Metadata_Collect,N97826,146.88944838635842,5.1252784813989685,-12.295907467879267,null,null,C208B,,,41.09265515631654,-104.86820160637991,2933.6385137712673,3.065232318608377,1.7221332112611583,257.6171876065473,-14.703125010571966,0,2279.5854607316633,0,41.10527809295118,-104.8509472910552,1871.7586022735945,0.0008812219611194216,0.00012817773979918734,0.00006866664632099173,0.0011673329874568872,-0.0008880886257515153,-0.00020599993896298907,-0.00006179998168889811,-0.001100955229346598,null,null,null,null,null,null,null,null,null,null,null,null,null,0,COMPLEX,null,null,null,null,null,null,null,0,null,null,Firebird,null,null,null,null,null,1,null,null,null,null,null,null,0,null,null,null,null,null,null,null,null,null,null,null,null,null,null,null,null,null,null,null,null,null,null,null,null,null,null,null,null,null,null,null,null,null,null,null,null,null,null,null,null,null,null,null,null,null,null,null,null
null,49340,1348087832734273,ESRI_Metadata_Collect,N97826,146.2137788967727,5.171666615802483,-12.41340372936186,null,null,C208B,,,41.09254309027108,-104.86810697469306,2933.942168307012,3.065232318608377,1.7221332112611583,257.8828126326862,-14.601562495623511,0,2278.413158440593,0,41.10521933580992,-104.8509438544749,1872.0622568093386,0.0008812219611194216,0.00012359996337778234,0.00007095553453169423,0.0011673329874568872,-0.0008880886257515153,-0.00019913327433088157,-0.00006637775811028923,-0.0010986663411358955,null,null,null,null,null,null,null,null,null,null,null,null,null,0,COMPLEX,null,null,null,null,null,null,null,0,null,null,Firebird,null,null,null,null,null,1,null,null,null,null,null,null,0,null,null,null,null,null,null,null,null,null,null,null,null,null,null,null,null,null,null,null,null,null,null,null,null,null,null,null,null,null,null,null,null,null,null,null,null,null,null,null,null,null,null,null,null,null,null,null,null
null,54337,1348087832934080,ESRI_Metadata_Collect,N97826,145.88967727168688,5.179601428266242,-12.451551866206856,null,null,C208B,,,41.0924476203939,-104.86802499968,2933.942168307012,3.065232318608377,1.7221332112611583,258.13281261784323,-14.585937538457074,0,2277.351450705284,0,41.10516937966699,-104.85094167518008,1872.365911345083,0.0008812219611194216,0.00011673329874568872,0.00007553331095308535,0.0011650440992461986,-0.0008880886257515153,-0.00019455549790949045,-0.00006866664632099173,-0.0010986663411358955,null,null,null,null,null,null,null,null,null,null,null,null,null,0,COMPLEX,null,null,null,null,null,null,null,0,null,null,Firebird,null,null,null,null,null,1,null,null,null,null,null,null,0,null,null,null,null,null,null,null,null,null,null,null,null,null,null,null,null,null,null,null,null,null,null,null,null,null,null,null,null,null,null,null,null,null,null,null,null,null,null,null,null,null,null,null,null,null,null,null,null
null,61629,1348087833154115,ESRI_Metadata_Collect,N97826,145.1865415426871,5.187536240730001,-12.491225928525651,null,null,C208B,,,41.09235248579287,-104.8679421026576,2934.245822842756,3.065232318608377,1.7221332112611583,258.3906251234912,-14.57812501796434,0,2276.242012688015,0,41.10512001025728,-104.85094025025654,1872.365911345083,0.000878933072908733,0.00011215552232428372,0.00007782219916378785,0.0011650440992461986,-0.0008880886257515153,-0.00018768883327738295,-0.00007095553453169423,-0.0010963774529252068,null,null,null,null,null,null,null,null,null,null,null,null,null,0,COMPLEX,null,null,null,null,null,null,null,0,null,null,Firebird,null,null,null,null,null,1,null,null,null,null,null,null,0,null,null,null,null,null,null,null,null,null,null,null,null,null,null,null,null,null,null,null,null,null,null,null,null,null,null,null,null,null,null,null,null,null,null,null,null,null,null,null,null,null,null,null,null,null,null,null,null
null,39473,1348087833374110,ESRI_Metadata_Collect,N97826,144.8184939345388,5.179601428266242,-12.514114810632648,null,null,C208B,,,41.09224234758517,-104.86784462112368,2934.5494773785003,3.0679789425497823,1.7248798352025636,258.71875014591933,-14.57812501796434,0,2275.0464273325742,0,41.10506318095375,-104.85093714895237,1872.6695658808271,0.0008812219611194216,0.0001052888576921901,0.00008239997558519285,0.001162755211035496,-0.0008903775139622178,-0.00018311105685599183,-0.00007553331095308535,-0.0010963774529252068,null,null,null,null,null,null,null,null,null,null,null,null,null,0,COMPLEX,null,null,null,null,null,null,null,0,null,null,Firebird,null,null,null,null,null,1,null,null,null,null,null,null,0,null,null,null,null,null,null,null,null,null,null,null,null,null,null,null,null,null,null,null,null,null,null,null,null,null,null,null,null,null,null,null,null,null,null,null,null,null,null,null,null,null,null,null,null,null,null,null,null
null,56842,1348087833574099,ESRI_Metadata_Collect,N97826,144.11535820553902,5.148472548600726,-12.475966673787653,null,null,C208B,,,41.09214838645053,-104.8677602153587,2934.8531319142444,3.065232318608377,1.7221332112611583,259.000000129221,-14.695312490079232,0,2273.8671401221927,0,41.10501297335372,-104.85093480201948,1872.6695658808271,0.000878933072908733,0.0001007110812707851,0.00008468886379589535,0.0011604663228247936,-0.0008880886257515153,-0.00017624439222388433,-0.00007782219916378785,-0.0010940885647145043,null,null,null,null,null,null,null,null,null,null,null,null,null,0,COMPLEX,null,null,null,null,null,null,null,0,null,null,Firebird,null,null,null,null,null,1,null,null,null,null,null,null,0,null,null,null,null,null,null,null,null,null,null,null,null,null,null,null,null,null,null,null,null,null,null,null,null,null,null,null,null,null,null,null,null,null,null,null,null,null,null,null,null,null,null,null,null,null,null,null,null
null,1369,1348087833774276,ESRI_Metadata_Collect,N97826,143.76928358892195,5.078279976805934,-12.396618549150055,null,null,C208B,,,41.09205505395869,-104.86767488758437,2935.460440985733,3.065232318608377,1.7221332112611583,259.2890626330136,-14.898437519976142,0,2272.5702734367387,0,41.10496230474905,-104.85093262272466,1872.9732204165712,0.000878933072908733,0.00009613330484939397,0.00008926664021728647,0.0011604663228247936,-0.0008880886257515153,-0.0001716666158024932,-0.00008239997558519285,-0.0010940885647145043,null,null,null,null,null,null,null,null,null,null,null,null,null,0,COMPLEX,null,null,null,null,null,null,null,0,null,null,Firebird,null,null,null,null,null,1,null,null,null,null,null,null,0,null,null,null,null,null,null,null,null,null,null,null,null,null,null,null,null,null,null,null,null,null,null,null,null,null,null,null,null,null,null,null,null,null,null,null,null,null,null,null,null,null,null,null,null,null,null,null,null
null,46861,1348087833974132,ESRI_Metadata_Collect,N97826,143.18699931334402,4.8670918912320325,-11.998352000488296,null,null,C208B,,,41.09196230820007,-104.8675886378007,2935.7640955214774,3.065232318608377,1.7221332112611583,259.507812620026,-15.312500016443664,0,2271.2571086062253,0,41.1049117618729,-104.85093027579177,1873.2768749523157,0.000878933072908733,0.00008926664021728647,0.00009155552842798897,0.001158177434614091,-0.0008880886257515153,-0.0001670888393810882,-0.00008468886379589535,-0.0010917996765038018,null,null,null,null,null,null,null,null,null,null,null,null,null,0,COMPLEX,null,null,null,null,null,null,null,0,null,null,Firebird,null,null,null,null,null,1,null,null,null,null,null,null,0,null,null,null,null,null,null,null,null,null,null,null,null,null,null,null,null,null,null,null,null,null,null,null,null,null,null,null,null,null,null,null,null,null,null,null,null,null,null,null,null,null,null,null,null,null,null,null,null
null,32987,1348087834174242,ESRI_Metadata_Collect,N97826,142.92881666285191,4.781029694509723,-11.827448347422717,null,null,C208B,,,41.09186931098432,-104.86750222037895,2935.7640955214774,3.0679789425497823,1.7248798352025636,259.6718751312401,-15.58593747931809,0,2269.7262471238446,0,41.10485945879708,-104.85092868323015,1873.2768749523157,0.000878933072908733,0.00008468886379589535,0.00009613330484939397,0.001158177434614091,-0.0008880886257515153,-0.00016022217474899458,-0.00008697775200658397,-0.0010917996765038018,null,null,null,null,null,null,null,null,null,null,null,null,null,0,COMPLEX,null,null,null,null,null,null,null,0,null,null,Firebird,null,null,null,null,null,1,null,null,null,null,null,null,0,null,null,null,null,null,null,null,null,null,null,null,null,null,null,null,null,null,null,null,null,null,null,null,null,null,null,null,null,null,null,null,null,null,null,null,null,null,null,null,null,null,null,null,null,null,null,null,null
null,53831,1348087834394123,ESRI_Metadata_Collect,N97826,142.42893110551614,4.624774925992618,-11.59245582445753,null,null,C208B,,,41.09176239980931,-104.86739987734119,2936.0677500572215,3.065232318608377,1.7221332112611583,259.82812512196324,-15.820312507366907,0,2268.194221488245,0,41.10480162366517,-104.85092491137372,1873.5805294880597,0.0008766441846980166,0.00008011108737449035,0.0000984221930600826,0.0011535996581927,-0.0008880886257515153,-0.00015564439832758958,-0.00009155552842798897,-0.0010872219000823968,null,null,null,null,null,null,null,null,null,null,null,null,null,0,COMPLEX,null,null,null,null,null,null,null,0,null,null,Firebird,null,null,null,null,null,1,null,null,null,null,null,null,0,null,null,null,null,null,null,null,null,null,null,null,null,null,null,null,null,null,null,null,null,null,null,null,null,null,null,null,null,null,null,null,null,null,null,null,null,null,null,null,null,null,null,null,null,null,null,null,null
null,65059,1348087834614083,ESRI_Metadata_Collect,N97826,142.22568093385215,4.461195715201271,-11.499374370555742,null,null,C208B,,,41.09167120470278,-104.86731128062462,2936.371404592966,3.065232318608377,1.7221332112611583,259.7734376461649,-15.89843754465619,0,2266.749507344037,0,41.10475141606514,-104.85092214534568,1873.5805294880597,0.0008766441846980166,0.00007324442274239673,0.0001029999694814876,0.0011513107699819974,-0.0008857997375408128,-0.00014877773369549596,-0.00009384441663869147,-0.0010872219000823968,null,null,null,null,null,null,null,null,null,null,null,null,null,0,COMPLEX,null,null,null,null,null,null,null,0,null,null,Firebird,null,null,null,null,null,1,null,null,null,null,null,null,0,null,null,null,null,null,null,null,null,null,null,null,null,null,null,null,null,null,null,null,null,null,null,null,null,null,null,null,null,null,null,null,null,null,null,null,null,null,null,null,null,null,null,null,null,null,null,null,null
null,46055,1348087834814200,ESRI_Metadata_Collect,N97826,142.15976195925842,4.3830683309427165,-11.537522507400737,null,null,C208B,,,41.091580596329436,-104.86722184571774,2936.67505912871,3.0679789425497823,1.7248798352025636,259.6875000884029,-15.89843754465619,0,2265.2337798534973,0,41.104701124646084,-104.85091937931763,1874.1878385595483,0.0008766441846980166,0.00006866664632099173,0.0001052888576921901,0.0011513107699819974,-0.0008880886257515153,-0.00014419995727407708,-0.0000984221930600826,-0.0010849330118717082,null,null,null,null,null,null,null,null,null,null,null,null,null,0,COMPLEX,null,null,null,null,null,null,null,0,null,null,Firebird,null,null,null,null,null,1,null,null,null,null,null,null,0,null,null,null,null,null,null,null,null,null,null,null,null,null,null,null,null,null,null,null,null,null,null,null,null,null,null,null,null,null,null,null,null,null,null,null,null,null,null,null,null,null,null,null,null,null,null,null,null
null,19333,1348087835014032,ESRI_Metadata_Collect,N97826,142.1982146944381,4.398327585680715,-11.256752220221564,null,null,C208B,,,41.091490490870314,-104.86713165643957,2936.67505912871,3.065232318608377,1.7221332112611583,259.3750001069566,-16.16406248703788,0,2263.608621960415,0,41.10465045604141,-104.85091678092765,1874.1878385595483,0.0008743552964873141,0.00006408886989958673,0.00010986663411358122,0.001149021881771295,-0.0008239997558519285,-0.00005722220526749311,-0.0001007110812707851,-0.0010826441236610057,null,null,null,null,null,null,null,null,null,null,null,null,null,0,COMPLEX,null,null,null,null,null,null,null,0,null,null,Firebird,null,null,null,null,null,1,null,null,null,null,null,null,0,null,null,null,null,null,null,null,null,null,null,null,null,null,null,null,null,null,null,null,null,null,null,null,null,null,null,null,null,null,null,null,null,null,null,null,null,null,null,null,null,null,null,null,null,null,null,null,null
null,10373,1348087835214233,ESRI_Metadata_Collect,N97826,142.32455939574274,4.523453474532303,-10.858485671559805,null,null,C208B,,,41.091400469230194,-104.86704104806624,2936.978713664454,3.065232318608377,1.7221332112611583,258.85156265898877,-16.640624979809218,0,2262.023045276763,0,41.10460112854122,-104.85091418253766,1874.4914930952928,0.0008743552964873141,0.00005722220526749311,0.00011215552232428372,0.0011467329935605924,-0.0008239997558519285,-0.00005264442884608811,-0.0001029999694814876,-0.0010826441236610057,null,null,null,null,null,null,null,null,null,null,null,null,null,0,COMPLEX,null,null,null,null,null,null,null,0,null,null,Firebird,null,null,null,null,null,1,null,null,null,null,null,null,0,null,null,null,null,null,null,null,null,null,null,null,null,null,null,null,null,null,null,null,null,null,null,null,null,null,null,null,null,null,null,null,null,null,null,null,null,null,null,null,null,null,null,null,null,null,null,null,null
null,49469,1348087835434103,ESRI_Metadata_Collect,N97826,142.5113298237583,5.031281472212896,-10.600604266487622,null,null,C208B,,,41.091296282173744,-104.86693434643881,2936.978713664454,3.065232318608377,1.7221332112611583,258.2187500917862,-16.687500018946594,0,2259.98344883788,0,41.10454174275722,-104.85091091359543,1874.7951476310368,0.0008720664082766116,0.00005264442884608811,0.00011673329874568872,0.00114444410534989,-0.000821710867641226,-0.00004577776421399449,-0.0001075777459028926,-0.0010803552354503032,null,null,null,null,null,null,null,null,null,null,null,null,null,0,COMPLEX,null,null,null,null,null,null,null,0,null,null,Firebird,null,null,null,null,null,1,null,null,null,null,null,null,0,null,null,null,null,null,null,null,null,null,null,null,null,null,null,null,null,null,null,null,null,null,null,null,null,null,null,null,null,null,null,null,null,null,null,null,null,null,null,null,null,null,null,null,null,null,null,null,null
null,46493,1348087835636253,ESRI_Metadata_Collect,N97826,142.60471503776608,5.265663624988555,-10.545670949430829,null,null,C208B,,,41.09120747590961,-104.8668421455039,2936.978713664454,3.065232318608377,1.7221332112611583,257.66406264567377,-16.757812535743142,0,2258.1557282847716,0,41.10449086460494,-104.85090831520543,1874.7951476310368,0.0008720664082766116,0.00004577776421399449,0.00011902218695639122,0.0011421552171392013,-0.000821710867641226,-0.00004119998779258949,-0.00010986663411358122,-0.0010780663472396007,null,null,null,null,null,null,null,null,null,null,null,null,null,0,COMPLEX,null,null,null,null,null,null,null,0,null,null,Firebird,null,null,null,null,null,1,null,null,null,null,null,null,0,null,null,null,null,null,null,null,null,null,null,null,null,null,null,null,null,null,null,null,null,null,null,null,null,null,null,null,null,null,null,null,null,null,null,null,null,null,null,null,null,null,null,null,null,null,null,null,null
null,41931,1348087835837463,ESRI_Metadata_Collect,N97826,142.8628976882582,5.703299050874357,-10.31067842646565,null,null,C208B,,,41.09111913065013,-104.86674944165478,2936.978713664454,3.065232318608377,1.7221332112611583,257.1406251138869,-16.820312532046955,0,2256.3117095866037,0,41.104439944543145,-104.85090580063448,1875.0988021667813,0.0008697775200659091,0.00004119998779258949,0.00012131107516707984,0.0011398663289284988,-0.000821710867641226,-0.000036622211371198365,-0.00011444441053498622,-0.0010757774590288982,null,null,null,null,null,null,null,null,null,null,null,null,null,0,COMPLEX,null,null,null,null,null,null,null,0,null,null,Firebird,null,null,null,null,null,1,null,null,null,null,null,null,0,null,null,null,null,null,null,null,null,null,null,null,null,null,null,null,null,null,null,null,null,null,null,null,null,null,null,null,null,null,null,null,null,null,null,null,null,null,null,null,null,null,null,null,null,null,null,null,null
null,5825,1348087836039307,ESRI_Metadata_Collect,N97826,142.93430991073473,5.804620502334664,-10.14740440076907,null,null,C208B,,,41.091031162576286,-104.86665631871048,2936.978713664454,3.065232318608377,1.7221332112611583,256.7734376566423,-17.187499989377102,0,2254.4758399609655,0,41.10438902448138,-104.85090328606353,1875.0988021667813,0.0008697775200659091,0.000036622211371198365,0.00012588885158848484,0.0011375774407177963,-0.0008194219794305235,-0.000032044434949793366,-0.00011673329874568872,-0.0010734885708182096,null,null,null,null,null,null,null,null,null,null,null,null,null,0,COMPLEX,null,null,null,null,null,null,null,0,null,null,Firebird,null,null,null,null,null,1,null,null,null,null,null,null,0,null,null,null,null,null,null,null,null,null,null,null,null,null,null,null,null,null,null,null,null,null,null,null,null,null,null,null,null,null,null,null,null,null,null,null,null,null,null,null,null,null,null,null,null,null,null,null,null
null,3741,1348087836239179,ESRI_Metadata_Collect,N97826,142.90135042343786,5.851619006927699,-9.483626819666128,null,null,C208B,,,41.09094340405005,-104.866562609033,2936.978713664454,3.0679789425497823,1.7248798352025636,256.5781251472836,-17.695312480300345,0,2252.686536464069,0,41.10433835587668,-104.85090052003548,1875.4024567025253,0.0008697775200659091,0.000029755546739090866,0.00012817773979918734,0.0011375774407177963,-0.0008194219794305235,-0.000027466658528402244,-0.00011902218695639122,-0.0010734885708182096,null,null,null,null,null,null,null,null,null,null,null,null,null,0,COMPLEX,null,null,null,null,null,null,null,0,null,null,Firebird,null,null,null,null,null,1,null,null,null,null,null,null,0,null,null,null,null,null,null,null,null,null,null,null,null,null,null,null,null,null,null,null,null,null,null,null,null,null,null,null,null,null,null,null,null,null,null,null,null,null,null,null,null,null,null,null,null,null,null,null,null
null,34409,1348087836441204,ESRI_Metadata_Collect,N97826,142.7695124742504,5.8125553147984235,-9.193700979644156,null,null,C208B,,,41.090856274166526,-104.86646873171743,2937.2823682001986,3.065232318608377,1.7221332112611583,256.625000102591,-18.14843749541251,0,2250.86696498349,0,41.10428747772437,-104.85089808928356,1875.7061112382698,0.0008674886318552066,0.000025177770317699744,0.00013275551622057846,0.0011352885525070938,-0.000817133091219821,-0.000020599993896294744,-0.00012131107516707984,-0.0010689107943968046,null,null,null,null,null,null,null,null,null,null,null,null,null,0,COMPLEX,null,null,null,null,null,null,null,0,null,null,Firebird,null,null,null,null,null,1,null,null,null,null,null,null,0,null,null,null,null,null,null,null,null,null,null,null,null,null,null,null,null,null,null,null,null,null,null,null,null,null,null,null,null,null,null,null,null,null,null,null,null,null,null,null,null,null,null,null,null,null,null,null,null
null,3381,1348087836641182,ESRI_Metadata_Collect,N97826,142.18722819867247,5.672170171208837,-8.803064058351389,null,null,C208B,,,41.090769395740125,-104.86637460294476,2937.2823682001986,3.065232318608377,1.7221332112611583,256.8984376492208,-18.406250001120497,0,2249.022946285322,0,41.104236222386476,-104.85089565853164,1875.7061112382698,0.0008674886318552066,0.000020599993896294744,0.00013504440443128096,0.0011329996642963913,-0.000817133091219821,-0.00001602221747490362,-0.00012588885158848484,-0.0010689107943968046,null,null,null,null,null,null,null,null,null,null,null,null,null,0,COMPLEX,null,null,null,null,null,null,null,0,null,null,Firebird,null,null,null,null,null,1,null,null,null,null,null,null,0,null,null,null,null,null,null,null,null,null,null,null,null,null,null,null,null,null,null,null,null,null,null,null,null,null,null,null,null,null,null,null,null,null,null,null,null,null,null,null,null,null,null,null,null,null,null,null,null
null,35203,1348087836847404,ESRI_Metadata_Collect,N97826,141.80270084687572,5.6251716666158025,-8.7023529770806,null,null,C208B,,,41.0906827268613,-104.86628030653404,2937.5860227359426,3.065232318608377,1.7221332112611583,257.26562510646545,-18.593749990031938,0,2247.202210651525,0,41.10418517659613,-104.85089306014166,1876.0097657740139,0.000865199743644518,0.000013733329264201122,0.00013733329264198346,0.0011307107760857027,-0.000817133091219821,-0.000011444441053498622,-0.00012817773979918734,-0.001066621906186102,null,null,null,null,null,null,null,null,null,null,null,null,null,0,COMPLEX,null,null,null,null,null,null,null,0,null,null,Firebird,null,null,null,null,null,1,null,null,null,null,null,null,0,null,null,null,null,null,null,null,null,null,null,null,null,null,null,null,null,null,null,null,null,null,null,null,null,null,null,null,null,null,null,null,null,null,null,null,null,null,null,null,null,null,null,null,null,null,null,null,null
null,4584,1348087837067240,ESRI_Metadata_Collect,N97826,140.8194094758526,5.6251716666158025,-8.427686391796627,null,null,C208B,,,41.09058210211367,-104.86617008450729,2937.889677271687,3.065232318608377,1.7221332112611583,257.8359375935597,-18.937499969702912,0,2244.764473811901,0,41.10412369533634,-104.85089205431328,1876.3134203097584,0.000865199743644518,0.000009155552842796122,0.00014191106906338846,0.0011261329996642977,-0.0008148442030091324,-0.000004577776421405,-0.00013275551622057846,-0.0010643330179753996,null,null,null,null,null,null,null,null,null,null,null,null,null,0,COMPLEX,null,null,null,null,null,null,null,0,null,null,Firebird,null,null,null,null,null,1,null,null,null,null,null,null,0,null,null,null,null,null,null,null,null,null,null,null,null,null,null,null,null,null,null,null,null,null,null,null,null,null,null,null,null,null,null,null,null,null,null,null,null,null,null,null,null,null,null,null,null,null,null,null,null
null,4472,1348087837267203,ESRI_Metadata_Collect,N97826,139.6383611810483,5.640430921353801,-8.529923398541214,null,null,C208B,,,41.09049601996807,-104.8660748660872,2937.889677271687,3.065232318608377,1.7221332112611583,258.44531259928954,-18.843749975247192,0,2243.2417614020505,0,41.10407445165518,-104.85088694135234,1876.3134203097584,0.0008629108554338155,0.0000022888882107025,0.00014419995727407708,0.0011261329996642977,-0.0008148442030091324,0,-0.00013504440443128096,-0.001062044129764711,null,null,null,null,null,null,null,null,null,null,null,null,null,0,COMPLEX,null,null,null,null,null,null,null,0,null,null,Firebird,null,null,null,null,null,1,null,null,null,null,null,null,0,null,null,null,null,null,null,null,null,null,null,null,null,null,null,null,null,null,null,null,null,null,null,null,null,null,null,null,null,null,null,null,null,null,null,null,null,null,null,null,null,null,null,null,null,null,null,null,null
null,64650,1348087837470407,ESRI_Metadata_Collect,N97826,139.067063401236,5.64836573381756,-8.780175176244391,null,null,C208B,,,41.09041056646518,-104.86597948002908,2938.193331807431,3.065232318608377,1.7221332112611583,259.000000129221,-18.531249993728125,0,2241.429174840783,0,41.10402365732193,-104.85088400768623,1876.6170748455024,0.0008629108554338155,0,0.00014877773369548208,0.0011238441114535952,-0.0008125553147984299,0.0000022888882107025,-0.00013733329264198346,-0.0010597552415540085,null,null,null,null,null,null,null,null,null,null,null,null,null,0,COMPLEX,null,null,null,null,null,null,null,0,null,null,Firebird,null,null,null,null,null,1,null,null,null,null,null,null,0,null,null,null,null,null,null,null,null,null,null,null,null,null,null,null,null,null,null,null,null,null,null,null,null,null,null,null,null,null,null,null,null,null,null,null,null,null,null,null,null,null,null,null,null,null,null,null,null
null,15251,1348087837673300,ESRI_Metadata_Collect,N97826,138.21560997940034,5.601367229224525,-9.092989898373368,null,null,C208B,,,41.09032569969554,-104.86588350723771,2938.193331807431,3.065232318608377,1.7221332112611583,259.34375010881195,-18.414062521613232,0,2239.616588279516,0,41.10397298871726,-104.850880738744,1876.920729381247,0.000860621967223113,-0.000004577776421405,0.00015106662190618458,0.0011215552232428927,-0.0008125553147984299,0.000006866664632093622,-0.00013962218085268596,-0.001057466353343306,null,null,null,null,null,null,null,null,null,null,null,null,null,0,COMPLEX,null,null,null,null,null,null,null,0,null,null,Firebird,null,null,null,null,null,1,null,null,null,null,null,null,0,null,null,null,null,null,null,null,null,null,null,null,null,null,null,null,null,null,null,null,null,null,null,null,null,null,null,null,null,null,null,null,null,null,null,null,null,null,null,null,null,null,null,null,null,null,null,null,null
null,6929,1348087837873321,ESRI_Metadata_Collect,N97826,137.9409475852598,5.507980590227973,-9.24863429670095,null,null,C208B,,,41.090241419659094,-104.86578678007507,2938.4969863431756,3.065232318608377,1.7221332112611583,259.593750093969,-18.218750012209057,0,2237.741137444447,0,41.10392223629353,-104.85087780507789,1876.920729381247,0.000860621967223113,-0.000011444441053498622,0.00015335551011688708,0.001119266335032204,-0.0008102664265877274,0.000011444441053498622,-0.00014419995727407708,-0.0010551774651326035,null,null,null,null,null,null,null,null,null,null,null,null,null,0,COMPLEX,null,null,null,null,null,null,null,0,null,null,Firebird,null,null,null,null,null,1,null,null,null,null,null,null,0,null,null,null,null,null,null,null,null,null,null,null,null,null,null,null,null,null,null,null,null,null,null,null,null,null,null,null,null,null,null,null,null,null,null,null,null,null,null,null,null,null,null,null,null,null,null,null,null
null,53307,1348087838073387,ESRI_Metadata_Collect,N97826,137.441062027924,5.288857692190312,-9.865108188116096,null,null,C208B,,,41.09015760062735,-104.86568963381727,2938.8006408789197,3.065232318608377,1.7221332112611583,259.81250016480044,-17.789062474756065,0,2235.8587016900674,0,41.10387144196028,-104.85087470377371,1877.224383916991,0.0008583330790124105,-0.00001602221747490362,0.0001579332865382782,0.0011169774468215016,-0.0008102664265877274,0.000018311105685592244,-0.00014648884548479346,-0.001052888576921901,null,null,null,null,null,null,null,null,null,null,null,null,null,0,COMPLEX,null,null,null,null,null,null,null,0,null,null,Firebird,null,null,null,null,null,1,null,null,null,null,null,null,0,null,null,null,null,null,null,null,null,null,null,null,null,null,null,null,null,null,null,null,null,null,null,null,null,null,null,null,null,null,null,null,null,null,null,null,null,null,null,null,null,null,null,null,null,null,null,null,null
null,29416,1348087838293219,ESRI_Metadata_Collect,N97826,137.3311970702678,5.210730307931758,-9.959715567491685,null,null,C208B,,,41.090060328641016,-104.8655746341057,2938.8006408789197,3.065232318608377,1.7221332112611583,259.66406261074917,-17.859374991552613,0,2232.936677111531,0,41.103807655677116,-104.85087353030727,1877.224383916991,0.000856044190801708,-0.000022888882106997244,0.0001602221747489807,0.0011123996704000966,-0.0008079775383770249,0.000022888882106997244,-0.00014877773369549596,-0.0010505996887112123,null,null,null,null,null,null,null,null,null,null,null,null,null,0,COMPLEX,null,null,null,null,null,null,null,0,null,null,Firebird,null,null,null,null,null,1,null,null,null,null,null,null,0,null,null,null,null,null,null,null,null,null,null,null,null,null,null,null,null,null,null,null,null,null,null,null,null,null,null,null,null,null,null,null,null,null,null,null,null,null,null,null,null,null,null,null,null,null,null,null,null
null,3442,1348087838512388,ESRI_Metadata_Collect,N97826,137.30922407873655,5.273598437452314,-9.63164159062471,null,null,C208B,,,41.089977724985204,-104.86547606292436,2939.104295414664,3.0679789425497823,1.7248798352025636,259.42968766657395,-18.085937499108695,0,2231.014660147721,0,41.103757699534185,-104.850870177546,1877.5280384527355,0.000856044190801708,-0.000027466658528402244,0.0001647999511703857,0.0011123996704000966,-0.0008079775383770249,0.000027466658528402244,-0.00015335551011688708,-0.0010483108005005098,null,null,null,null,null,null,null,null,null,null,null,null,null,0,COMPLEX,null,null,null,null,null,null,null,0,null,null,Firebird,null,null,null,null,null,1,null,null,null,null,null,null,0,null,null,null,null,null,null,null,null,null,null,null,null,null,null,null,null,null,null,null,null,null,null,null,null,null,null,null,null,null,null,null,null,null,null,null,null,null,null,null,null,null,null,null,null,null,null,null,null
null,37895,1348087838712242,ESRI_Metadata_Collect,N97826,137.26527809567406,5.30472731711783,-9.561449018829919,null,null,C208B,,,41.089895582334094,-104.86537682119076,2939.4079499504082,3.0707255664911877,1.727626459143969,259.2812501125227,-18.156250015905243,0,2229.4442174559094,0,41.10370992268608,-104.85086422639473,1877.8316929884795,0.000856044190801708,-0.000032044434949793366,0.00016708883938107433,0.001110110782189394,-0.0008079775383770249,0.000034333323160495866,-0.00015564439832758958,-0.0010483108005005098,null,null,null,null,null,null,null,null,null,null,null,null,null,0,COMPLEX,null,null,null,null,null,null,null,0,null,null,Firebird,null,null,null,null,null,1,null,null,null,null,null,null,0,null,null,null,null,null,null,null,null,null,null,null,null,null,null,null,null,null,null,null,null,null,null,null,null,null,null,null,null,null,null,null,null,null,null,null,null,null,null,null,null,null,null,null,null,null,null,null,null
